[{"business_status": "OPERATIONAL", "formatted_address": "6122 188th St, Queens, NY 11356", "geometry": {"location": {"lat": 40.7399156, "lng": -73.78665749999999}, "viewport": {"northeast": {"lat": 40.74126682989272, "lng": -73.78515027010727}, "southwest": {"lat": 40.73856717010728, "lng": -73.78784992989272}}}, "icon": "https://maps.gstatic.com/mapfiles/place_api/icons/v1/png_71/restaurant-71.png", "icon_background_color": "#FF9E67", "icon_mask_base_uri": "https://maps.gstatic.com/mapfiles/place_api/icons/v2/restaurant_pinlet", "name": "Five Guys", "opening_hours": {"open_now": true}, "photos": [{"height": 3024, "html_attributions": ["<a href=\"https://maps.google.com/maps/contrib/103071721573158357851\">dhffasd</a>"], "photo_reference": "Aap_uEAS_aW-SiBBEQL-Y72k6vEZvSGVcRvFgAixZde5yuAe5Ckn5QKzn2EHuszor8ko40ZTyBj6NCuT3yI7AAS0k-pMdMN_ZR3rOcawEdPcPcXw63fSapNkXL2wJ-SaPW1JS69XeknKpxudpimdkyDfJURDqiP7MGr8deNQCLcMMVd-Lczt", "width": 4032}], "place_id": "ChIJpXN6G7FhwokRtBkaHssngkQ", "plus_code": {"compound_code": "P6Q7+X8 New York", "global_code": "87G8P6Q7+X8"}, "price_level": 2, "rating": 4.1, "reference": "ChIJpXN6G7FhwokRtBkaHssngkQ", "types": ["meal_takeaway", "restaurant", "food", "point_of_interest", "establishment"], "user_ratings_total": 614}, {"business_status": "OPERATIONAL", "formatted_address": "210-33 26th Ave, Queens, NY 11360", "geometry": {"location": {"lat": 40.7786771, "lng": -73.7790904}, "viewport": {"northeast": {"lat": 40.78000637989272, "lng": -73.77780972010727}, "southwest": {"lat": 40.77730672010727, "lng": -73.78050937989272}}}, "icon": "https://maps.gstatic.com/mapfiles/place_api/icons/v1/png_71/restaurant-71.png", "icon_background_color": "#FF9E67", "icon_mask_base_uri": "https://maps.gstatic.com/mapfiles/place_api/icons/v2/restaurant_pinlet", "name": "Five Guys", "opening_hours": {"open_now": true}, "photos": [{"height": 1080, "html_attributions": ["<a href=\"https://maps.google.com/maps/contrib/103646081354340544405\">Melinda Balin</a>"], "photo_reference": "Aap_uEAFTSl6JNhRbL6rWMcIc78hU125hZv7-cWXecI8xsPZDSDBPMXVuRCQJTcMTBnKpA7o7s89XgP9qoFar1UNjhzJw1Ajf4KSsafVUaDROiyLE-tnnQUSKPDKaBwaXKEceORDGHF6jagWtq9KAQDGFDqHLY9chmUPxnImniftFt8LECTM", "width": 1920}], "place_id": "ChIJQf37U26KwokRRDI9WfxTSGs", "plus_code": {"compound_code": "Q6HC+F9 New York", "global_code": "87G8Q6HC+F9"}, "price_level": 2, "rating": 4.2, "reference": "ChIJQf37U26KwokRRDI9WfxTSGs", "types": ["meal_takeaway", "restaurant", "food", "point_of_interest", "establishment"], "user_ratings_total": 432}, {"business_status": "OPERATIONAL", "formatted_address": "25455 Horace Harding Expy, Queens, NY 11362", "geometry": {"location": {"lat": 40.7652398, "lng": -73.7257079}, "viewport": {"northeast": {"lat": 40.76651487989272, "lng": -73.72426502010728}, "southwest": {"lat": 40.76381522010728, "lng": -73.72696467989272}}}, "icon": "https://maps.gstatic.com/mapfiles/place_api/icons/v1/png_71/restaurant-71.png", "icon_background_color": "#FF9E67", "icon_mask_base_uri": "https://maps.gstatic.com/mapfiles/place_api/icons/v2/restaurant_pinlet", "name": "Five Guys", "opening_hours": {"open_now": true}, "photos": [{"height": 2988, "html_attributions": ["<a href=\"https://maps.google.com/maps/contrib/105865958312811091372\">Donald S</a>"], "photo_reference": "Aap_uEA5asb8h2kcLP3GRejEgcUgx0z4ZcWrKyJ10_FSXPg3jnTEW5U8r4f-ccrsxUOqYtZSqLKpQTUd2S8vSs-HQZ8Kxt0W6duP0h56oN28NeKrNaztTXmO3Jl4fhk8O8-tjDd1kFTXwmC-YNrSNE30OH5Lg63FB-TSMwtAxWp9dvva6ryZ", "width": 5312}], "place_id": "ChIJ73l6IueJwokRy60od71E9F4", "plus_code": {"compound_code": "Q78F+3P New York", "global_code": "87G8Q78F+3P"}, "price_level": 2, "rating": 4.2, "reference": "ChIJ73l6IueJwokRy60od71E9F4", "types": ["meal_takeaway", "restaurant", "food", "point_of_interest", "establishment"], "user_ratings_total": 298}, {"business_status": "OPERATIONAL", "formatted_address": "73-25 Woodhaven Blvd, Queens, NY 11385", "geometry": {"location": {"lat": 40.709878, "lng": -73.85921429999999}, "viewport": {"northeast": {"lat": 40.71122317989272, "lng": -73.85794297010727}, "southwest": {"lat": 40.70852352010728, "lng": -73.86064262989271}}}, "icon": "https://maps.gstatic.com/mapfiles/place_api/icons/v1/png_71/restaurant-71.png", "icon_background_color": "#FF9E67", "icon_mask_base_uri": "https://maps.gstatic.com/mapfiles/place_api/icons/v2/restaurant_pinlet", "name": "Five Guys", "opening_hours": {"open_now": true}, "photos": [{"height": 1960, "html_attributions": ["<a href=\"https://maps.google.com/maps/contrib/116459829640103133593\">guiso bori</a>"], "photo_reference": "Aap_uECJXqv-3dYSBXxX8oTyQ1k15LMJY3p669_AeVhZkaozoPzgz9vZBecxTEoJDcvHBmWf6tXKNfQqQfNeWpShxXxwXvci89zwJQrjHat7PipuyuHjm59aTg7jPWBT09DBQSYwY2HzvIt-LTfatDF0IKp5nhfTd5LAnbow13uVITN8mPW0", "width": 4032}], "place_id": "ChIJK3SKghFewokRRKjAgk6liTk", "plus_code": {"compound_code": "P45R+X8 New York", "global_code": "87G8P45R+X8"}, "price_level": 2, "rating": 4.3, "reference": "ChIJK3SKghFewokRRKjAgk6liTk", "types": ["meal_takeaway", "restaurant", "food", "point_of_interest", "establishment"], "user_ratings_total": 1080}, {"business_status": "OPERATIONAL", "formatted_address": "284 7th Ave, Brooklyn, NY 11215", "geometry": {"location": {"lat": 40.6685639, "lng": -73.9803877}, "viewport": {"northeast": {"lat": 40.66989662989272, "lng": -73.97898787010726}, "southwest": {"lat": 40.66719697010728, "lng": -73.98168752989271}}}, "icon": "https://maps.gstatic.com/mapfiles/place_api/icons/v1/png_71/restaurant-71.png", "icon_background_color": "#FF9E67", "icon_mask_base_uri": "https://maps.gstatic.com/mapfiles/place_api/icons/v2/restaurant_pinlet", "name": "Five Guys", "opening_hours": {"open_now": true}, "photos": [{"height": 562, "html_attributions": ["<a href=\"https://maps.google.com/maps/contrib/103044868989705077746\">riccardome</a>"], "photo_reference": "Aap_uEC4PKoNBhhbO_BTJ-HpXY6N8oyysiSWKm8K8MYlz_UhjhVykFL39WhyJtrTCMN_WyM569Aptr5XS4Qgh3LfLYjIRYv6pxYN2_VxhrPl0zRZHixKj3aYRD1M2vt_URF9_WKOwVb6icEDtu5jzJJaXfRySh175mMW0evSsssC4ZDMfwwM", "width": 1000}], "place_id": "ChIJaZ03VAJbwokRUYocdowrw9Q", "plus_code": {"compound_code": "M299+CR New York", "global_code": "87G8M299+CR"}, "price_level": 2, "rating": 4.1, "reference": "ChIJaZ03VAJbwokRUYocdowrw9Q", "types": ["meal_takeaway", "restaurant", "food", "point_of_interest", "establishment"], "user_ratings_total": 766}, {"business_status": "OPERATIONAL", "formatted_address": "2 MetroTech Center, Brooklyn, NY 11201", "geometry": {"location": {"lat": 40.6935714, "lng": -73.985947}, "viewport": {"northeast": {"lat": 40.69466072989271, "lng": -73.98437187010728}, "southwest": {"lat": 40.69196107010727, "lng": -73.98707152989273}}}, "icon": "https://maps.gstatic.com/mapfiles/place_api/icons/v1/png_71/restaurant-71.png", "icon_background_color": "#FF9E67", "icon_mask_base_uri": "https://maps.gstatic.com/mapfiles/place_api/icons/v2/restaurant_pinlet", "name": "Five Guys", "opening_hours": {"open_now": true}, "photos": [{"height": 1960, "html_attributions": ["<a href=\"https://maps.google.com/maps/contrib/115321093816264625716\">kevin bernardi</a>"], "photo_reference": "Aap_uEB_GWaJZL2lL97zvB7nmGdvZi_e4XGpL6djXEIb5rXFX2K4WS-pT3-Y7elnaGDc51zco2UR2HjlOI0Ov0R1H1ik4Wu435hlvTQ4dx-2whxowp9KAN44yVP2Gmv64oilGpM5P5V9X0VFYLGc1wR_Mau29KVgb4flBjpLMctdSeJbfnm1", "width": 4032}], "place_id": "ChIJEb4n_kpawokRfn3mDV5WiEE", "plus_code": {"compound_code": "M2V7+CJ New York", "global_code": "87G8M2V7+CJ"}, "price_level": 2, "rating": 4.2, "reference": "ChIJEb4n_kpawokRfn3mDV5WiEE", "types": ["meal_takeaway", "restaurant", "food", "point_of_interest", "establishment"], "user_ratings_total": 1121}, {"business_status": "OPERATIONAL", "formatted_address": "2159 Ralph Ave, Brooklyn, NY 12234", "geometry": {"location": {"lat": 40.62656680000001, "lng": -73.9163025}, "viewport": {"northeast": {"lat": 40.62784787989273, "lng": -73.91503797010726}, "southwest": {"lat": 40.62514822010728, "lng": -73.91773762989271}}}, "icon": "https://maps.gstatic.com/mapfiles/place_api/icons/v1/png_71/restaurant-71.png", "icon_background_color": "#FF9E67", "icon_mask_base_uri": "https://maps.gstatic.com/mapfiles/place_api/icons/v2/restaurant_pinlet", "name": "Five Guys", "opening_hours": {"open_now": true}, "photos": [{"height": 2268, "html_attributions": ["<a href=\"https://maps.google.com/maps/contrib/101700261378472508325\">elaine lee</a>"], "photo_reference": "Aap_uECrOXYLtOEc3xrG1M6ymWQnlVHACXxcafOkEFb2Epe7vMVQ4DE-1dYj45Y9DxevlXvoY_cBMZrI4pJ-58rpMGMNmTeZt_NlbF4NbaxqsaqYdnfRHtqjFpaLp3_BdBdcnJ6LRN0UVncNBxwC2nco2FfmHasJlne4UcDsWXWtVet1kMlZ", "width": 4032}], "place_id": "ChIJL6WyMUtDwokR058dJ9F9QI8", "plus_code": {"compound_code": "J3GM+JF New York", "global_code": "87G8J3GM+JF"}, "price_level": 2, "rating": 4.1, "reference": "ChIJL6WyMUtDwokR058dJ9F9QI8", "types": ["meal_takeaway", "restaurant", "food", "point_of_interest", "establishment"], "user_ratings_total": 560}, {"business_status": "OPERATIONAL", "formatted_address": "1628 Shore Pkwy, Brooklyn, NY 11214", "geometry": {"location": {"lat": 40.5952363, "lng": -74.0002255}, "viewport": {"northeast": {"lat": 40.59652572989272, "lng": -73.99876652010728}, "southwest": {"lat": 40.59382607010728, "lng": -74.00146617989273}}}, "icon": "https://maps.gstatic.com/mapfiles/place_api/icons/v1/png_71/restaurant-71.png", "icon_background_color": "#FF9E67", "icon_mask_base_uri": "https://maps.gstatic.com/mapfiles/place_api/icons/v2/restaurant_pinlet", "name": "Five Guys", "opening_hours": {"open_now": true}, "photos": [{"height": 4032, "html_attributions": ["<a href=\"https://maps.google.com/maps/contrib/105464755042010870643\">Jennie Green</a>"], "photo_reference": "Aap_uECee4q0d0F0WafHv9jfqLbWlhad-fU9GYNEdPja2KKCt_XHdF4rvx77r3NkDhsvF7kBG93lixu3wTZLR53zQK6W0mIuw6p7okHIYq9eWxsoFvCUaw3iDVS5ZLFGpXeaojNu56mY-86JBzGadbJTme6unomZiK0U8IzcjfDDfHsauTFw", "width": 3024}], "place_id": "ChIJ3XR8AlNbwokRafmD4huXlzQ", "plus_code": {"compound_code": "HXWX+3W New York", "global_code": "87G7HXWX+3W"}, "price_level": 2, "rating": 4.1, "reference": "ChIJ3XR8AlNbwokRafmD4huXlzQ", "types": ["meal_takeaway", "restaurant", "food", "point_of_interest", "establishment"], "user_ratings_total": 814}, {"business_status": "OPERATIONAL", "formatted_address": "316 W 34th St, New York, NY 10036", "geometry": {"location": {"lat": 40.75253, "lng": -73.9947352}, "viewport": {"northeast": {"lat": 40.75357902989272, "lng": -73.99344117010727}, "southwest": {"lat": 40.75087937010728, "lng": -73.99614082989271}}}, "icon": "https://maps.gstatic.com/mapfiles/place_api/icons/v1/png_71/restaurant-71.png", "icon_background_color": "#FF9E67", "icon_mask_base_uri": "https://maps.gstatic.com/mapfiles/place_api/icons/v2/restaurant_pinlet", "name": "Five Guys", "opening_hours": {"open_now": true}, "photos": [{"height": 3024, "html_attributions": ["<a href=\"https://maps.google.com/maps/contrib/101521830422151657270\">Hyemin Sun</a>"], "photo_reference": "Aap_uEDOHgvmtb0YVZb8H5Xl3JfQZuX_PPjcCOOt4tSfd-zhdSrijmb4XFZBYmmqXdWy11aYePmdOXPoWL37dlPpoDNHRjCZNTMLSomVLA7Brxn-HDDTInqZDqZymUvTodaFm0s_v9UgMnuP63C2IZx-M4FtaeGfP901PtswUuSElliOhs29", "width": 4032}], "place_id": "ChIJHRQr8a1ZwokR0ZUDrOkxKgU", "plus_code": {"compound_code": "Q234+24 New York", "global_code": "87G8Q234+24"}, "price_level": 2, "rating": 4.2, "reference": "ChIJHRQr8a1ZwokR0ZUDrOkxKgU", "types": ["meal_takeaway", "restaurant", "food", "point_of_interest", "establishment"], "user_ratings_total": 1424}, {"business_status": "OPERATIONAL", "formatted_address": "1008 6th Ave, New York, NY 10018", "geometry": {"location": {"lat": 40.7519106, "lng": -73.98600449999999}, "viewport": {"northeast": {"lat": 40.75329997989272, "lng": -73.98474732010727}, "southwest": {"lat": 40.75060032010728, "lng": -73.98744697989272}}}, "icon": "https://maps.gstatic.com/mapfiles/place_api/icons/v1/png_71/restaurant-71.png", "icon_background_color": "#FF9E67", "icon_mask_base_uri": "https://maps.gstatic.com/mapfiles/place_api/icons/v2/restaurant_pinlet", "name": "Five Guys", "opening_hours": {"open_now": true}, "photos": [{"height": 562, "html_attributions": ["<a href=\"https://maps.google.com/maps/contrib/103044868989705077746\">riccardome</a>"], "photo_reference": "Aap_uECYJXRIU0ue5bb_AIdzH1pQ5DOvpcaYndfJVf_3IORc2CDLJDi3aPnu3TmBx3r-F4Lc1AkIWt_USlqpgVUrMzugoJ07mJvmoR4hwXD1Sec8gmaTE5NZr8j5jVg6U-R7RWGdeaXignYJ0FgpLbqhPqQXfU-BO7NC3tugiZcliL6RZKXO", "width": 1000}], "place_id": "ChIJk0y1SqpZwokR7BJIt2nqkwo", "plus_code": {"compound_code": "Q227+QH New York", "global_code": "87G8Q227+QH"}, "price_level": 2, "rating": 4.3, "reference": "ChIJk0y1SqpZwokR7BJIt2nqkwo", "types": ["meal_takeaway", "restaurant", "food", "point_of_interest", "establishment"], "user_ratings_total": 1228}, {"business_status": "OPERATIONAL", "formatted_address": "36 W 48th St, New York, NY 10036", "geometry": {"location": {"lat": 40.75781, "lng": -73.979967}, "viewport": {"northeast": {"lat": 40.75915982989272, "lng": -73.97861717010728}, "southwest": {"lat": 40.75646017010728, "lng": -73.98131682989272}}}, "icon": "https://maps.gstatic.com/mapfiles/place_api/icons/v1/png_71/restaurant-71.png", "icon_background_color": "#FF9E67", "icon_mask_base_uri": "https://maps.gstatic.com/mapfiles/place_api/icons/v2/restaurant_pinlet", "name": "Five Guys", "opening_hours": {"open_now": true}, "photos": [{"height": 3120, "html_attributions": ["<a href=\"https://maps.google.com/maps/contrib/110155872054597547812\">Max Morales</a>"], "photo_reference": "Aap_uEBHzRKrqdfhxDcMfVlDmVaODOO7mLAN4Asxt1xs--sxz18v-9vpf70t4YWy6w_gmGJCWydqShd-W374DGd6GVhwYXe8S4UeYyJwO9vkko_3NvECH2qSnM4SneNf7sGc4xl-jhTSHlnhSshOWYNC6A4Tq0h51ZWDsZBSuTK4X5EX7dGi", "width": 4160}], "place_id": "ChIJLQCw4_5YwokRd5hb1b2IUYU", "plus_code": {"compound_code": "Q25C+42 New York", "global_code": "87G8Q25C+42"}, "price_level": 2, "rating": 4.3, "reference": "ChIJLQCw4_5YwokRd5hb1b2IUYU", "types": ["meal_takeaway", "restaurant", "food", "point_of_interest", "establishment"], "user_ratings_total": 1943}, {"business_status": "OPERATIONAL", "formatted_address": "148 Madison Ave, New York, NY 10016", "geometry": {"location": {"lat": 40.74646, "lng": -73.984274}, "viewport": {"northeast": {"lat": 40.74789867989272, "lng": -73.98293137010727}, "southwest": {"lat": 40.74519902010728, "lng": -73.98563102989272}}}, "icon": "https://maps.gstatic.com/mapfiles/place_api/icons/v1/png_71/restaurant-71.png", "icon_background_color": "#FF9E67", "icon_mask_base_uri": "https://maps.gstatic.com/mapfiles/place_api/icons/v2/restaurant_pinlet", "name": "Five Guys", "opening_hours": {"open_now": true}, "photos": [{"height": 562, "html_attributions": ["<a href=\"https://maps.google.com/maps/contrib/103044868989705077746\">riccardome</a>"], "photo_reference": "Aap_uEDVTddBXJYL1WKtVvXnBFsU1nLQGQsRXM25IQPAAJD709Twmb2DqZlWJHTmhHEFT056kPWxieBkTKYKjfbuuHD1nyhXmlLDw9usBT_uNUjdceH1exE0pfLdFC5mS1qsQf1BadVIrFiCI6y9xp41D-zbKBI8rHXZgfv9qG7rRxXAAigW", "width": 1000}], "place_id": "ChIJ-yVUFKhZwokRitoEd4phQQc", "plus_code": {"compound_code": "P2W8+H7 New York", "global_code": "87G8P2W8+H7"}, "price_level": 2, "rating": 4.3, "reference": "ChIJ-yVUFKhZwokRitoEd4phQQc", "types": ["meal_takeaway", "restaurant", "food", "point_of_interest", "establishment"], "user_ratings_total": 388}, {"business_status": "OPERATIONAL", "formatted_address": "343 7th Ave, New York, NY 10001", "geometry": {"location": {"lat": 40.7479506, "lng": -73.9926029}, "viewport": {"northeast": {"lat": 40.74930042989272, "lng": -73.99125307010728}, "southwest": {"lat": 40.74660077010728, "lng": -73.99395272989271}}}, "icon": "https://maps.gstatic.com/mapfiles/place_api/icons/v1/png_71/restaurant-71.png", "icon_background_color": "#FF9E67", "icon_mask_base_uri": "https://maps.gstatic.com/mapfiles/place_api/icons/v2/restaurant_pinlet", "name": "Five Guys", "opening_hours": {"open_now": true}, "photos": [{"height": 562, "html_attributions": ["<a href=\"https://maps.google.com/maps/contrib/103044868989705077746\">riccardome</a>"], "photo_reference": "Aap_uEDC5AXv7dXITFldt_NW1PyQzo_GN3jzmm0rNAkYejQ75Dw_wSYOoRVb_FO7zkJwzSpWCB019Puc-2GMoAwrlBIzY1VxUfRSRHycRvTKFQ9en_r9l0VlTxJ2AFO6nfW9iY98ZlTpfHtFotjl9Hl4tMzQtk35Q52aAP4Uz8pLtU244A5O", "width": 1000}], "place_id": "ChIJX1Rtva9ZwokRutZ91mSY71Y", "plus_code": {"compound_code": "P2X4+5X New York", "global_code": "87G8P2X4+5X"}, "price_level": 2, "rating": 4.3, "reference": "ChIJX1Rtva9ZwokRutZ91mSY71Y", "types": ["meal_takeaway", "restaurant", "food", "point_of_interest", "establishment"], "user_ratings_total": 1500}, {"business_status": "OPERATIONAL", "formatted_address": "253 W 42nd St, New York, NY 10036", "geometry": {"location": {"lat": 40.7572074, "lng": -73.98914979999999}, "viewport": {"northeast": {"lat": 40.75846792989272, "lng": -73.98785787010728}, "southwest": {"lat": 40.75576827010728, "lng": -73.99055752989271}}}, "icon": "https://maps.gstatic.com/mapfiles/place_api/icons/v1/png_71/restaurant-71.png", "icon_background_color": "#FF9E67", "icon_mask_base_uri": "https://maps.gstatic.com/mapfiles/place_api/icons/v2/restaurant_pinlet", "name": "Five Guys", "opening_hours": {"open_now": true}, "photos": [{"height": 3024, "html_attributions": ["<a href=\"https://maps.google.com/maps/contrib/115021207124653948579\">myseok83</a>"], "photo_reference": "Aap_uEB3ZoGqHS6qwJfmnSAfRgM7TVIcRf3oltFrVLg46M5NTP399hbCFxNx8ANTjxOUZBoehXlGPUqvCUyTPiGdRO7oRkx9slfedeJuBf8x2w8cXrwbrtn3RrGb0C0YVmc_B45CiOP5Cz1xkTnwlljuxw3UHUk6bbYJ1HIjmk-agak-nDdZ", "width": 4032}], "place_id": "ChIJh65VpFRYwokRrOh1t2-Phf4", "plus_code": {"compound_code": "Q246+V8 New York", "global_code": "87G8Q246+V8"}, "price_level": 2, "rating": 4.4, "reference": "ChIJh65VpFRYwokRrOh1t2-Phf4", "types": ["meal_takeaway", "restaurant", "food", "point_of_interest", "establishment"], "user_ratings_total": 4641}, {"business_status": "OPERATIONAL", "formatted_address": "690 3rd Ave, New York, NY 10017", "geometry": {"location": {"lat": 40.751786, "lng": -73.973958}, "viewport": {"northeast": {"lat": 40.75313582989272, "lng": -73.97260817010726}, "southwest": {"lat": 40.75043617010728, "lng": -73.97530782989271}}}, "icon": "https://maps.gstatic.com/mapfiles/place_api/icons/v1/png_71/restaurant-71.png", "icon_background_color": "#FF9E67", "icon_mask_base_uri": "https://maps.gstatic.com/mapfiles/place_api/icons/v2/restaurant_pinlet", "name": "Five Guys", "opening_hours": {"open_now": true}, "photos": [{"height": 3024, "html_attributions": ["<a href=\"https://maps.google.com/maps/contrib/100515918828337143538\">Ran Ben-David</a>"], "photo_reference": "Aap_uECh0xF32kHv88LT88DQyul3nL6xzmRLtXTXlNLzZIS8i18rLYXGwpg_JdqlauYk2LgyOm0zsIPZX9zIGesZPkCH-RCkL-NtPtieiO37V3vnrzHjOIzMysTLs2awUaLVmmcyARU3IKZ_U66YHwVZUcrcLPSi9-y-PZhfCmPKFzEQKogM", "width": 4032}], "place_id": "ChIJeyQT-QJZwokRmic1uCu4IG0", "plus_code": {"compound_code": "Q22G+PC New York", "global_code": "87G8Q22G+PC"}, "price_level": 2, "rating": 4.3, "reference": "ChIJeyQT-QJZwokRmic1uCu4IG0", "types": ["meal_takeaway", "restaurant", "food", "point_of_interest", "establishment"], "user_ratings_total": 1150}, {"business_status": "OPERATIONAL", "formatted_address": "43 W 55th St, New York, NY 10019", "geometry": {"location": {"lat": 40.762546, "lng": -73.976704}, "viewport": {"northeast": {"lat": 40.76385472989272, "lng": -73.97539942010728}, "southwest": {"lat": 40.76115507010728, "lng": -73.97809907989273}}}, "icon": "https://maps.gstatic.com/mapfiles/place_api/icons/v1/png_71/restaurant-71.png", "icon_background_color": "#FF9E67", "icon_mask_base_uri": "https://maps.gstatic.com/mapfiles/place_api/icons/v2/restaurant_pinlet", "name": "Five Guys", "opening_hours": {"open_now": true}, "photos": [{"height": 3024, "html_attributions": ["<a href=\"https://maps.google.com/maps/contrib/117588552233950426654\">Anthony Rahayel</a>"], "photo_reference": "Aap_uEC4_6xiSMjZhNeyR6ZhgqVOAYuqSDDfxrVmijTWRZndNbjEsOXB91k22XY64IuFeiTKjnX9n_tHIw_4pHcznSq3VMYB-RSVe2YSzGZHI7g5jBOwNp36JSVyO9VMNURcfFRtAGtzdMrLRTwfLFwT_yVkaq6lNmkTdmX785TI1xa2OCLE", "width": 4032}], "place_id": "ChIJ_b6qJvpYwokR7TFSUhdqGUc", "plus_code": {"compound_code": "Q27F+28 New York", "global_code": "87G8Q27F+28"}, "price_level": 2, "rating": 4.3, "reference": "ChIJ_b6qJvpYwokR7TFSUhdqGUc", "types": ["meal_takeaway", "restaurant", "food", "point_of_interest", "establishment"], "user_ratings_total": 2303}, {"business_status": "OPERATIONAL", "formatted_address": "56 W 14th St, New York, NY 10011", "geometry": {"location": {"lat": 40.736944, "lng": -73.9962886}, "viewport": {"northeast": {"lat": 40.73836647989272, "lng": -73.99487632010728}, "southwest": {"lat": 40.73566682010728, "lng": -73.99757597989272}}}, "icon": "https://maps.gstatic.com/mapfiles/place_api/icons/v1/png_71/restaurant-71.png", "icon_background_color": "#FF9E67", "icon_mask_base_uri": "https://maps.gstatic.com/mapfiles/place_api/icons/v2/restaurant_pinlet", "name": "Five Guys", "opening_hours": {"open_now": true}, "photos": [{"height": 3024, "html_attributions": ["<a href=\"https://maps.google.com/maps/contrib/103585647259939673150\">jjih k</a>"], "photo_reference": "Aap_uEAxCtkhQAAMuti_KD9W_PfgO3r6pewuajDrgnnkp12FGMmVp813o_I3ngmen20KtvDEixVHGKd5yf8BPVZF11ZBw_zpbRFES9hfxCrLrla4Y8EvSsEEDQdsJHUaR5l_ooLkg0gV9AHaje9Qka80wDnejix4qt389YCwD8jUa46RkLA", "width": 4032}], "place_id": "ChIJvQa_3ZdZwokRq_sKXAgyQ-c", "plus_code": {"compound_code": "P2P3+QF New York", "global_code": "87G8P2P3+QF"}, "price_level": 2, "rating": 4.4, "reference": "ChIJvQa_3ZdZwokRq_sKXAgyQ-c", "types": ["meal_takeaway", "restaurant", "food", "point_of_interest", "establishment"], "user_ratings_total": 1147}, {"business_status": "OPERATIONAL", "formatted_address": "296 Bleecker St, New York, NY 10014", "geometry": {"location": {"lat": 40.7323484, "lng": -74.0038302}, "viewport": {"northeast": {"lat": 40.73371072989272, "lng": -74.00239742010727}, "southwest": {"lat": 40.73101107010728, "lng": -74.0050970798927}}}, "icon": "https://maps.gstatic.com/mapfiles/place_api/icons/v1/png_71/restaurant-71.png", "icon_background_color": "#FF9E67", "icon_mask_base_uri": "https://maps.gstatic.com/mapfiles/place_api/icons/v2/restaurant_pinlet", "name": "Five Guys", "opening_hours": {"open_now": true}, "photos": [{"height": 562, "html_attributions": ["<a href=\"https://maps.google.com/maps/contrib/103044868989705077746\">riccardome</a>"], "photo_reference": "Aap_uEDLEQ8eeR-GkE31IcGUh80QYbIPvDbnZjYyqgURK7q0-rD485_FERyVj8YsQGLkBpOAgMlZQxGOUQICwjg86G_-7MLIzP6Vqvw1jS73hLGEaoiACEwNfZCp4CJRkWlKrG8XKpuOnFXzbcMHdtPwEJ8Z3UPQFY2DgOPHY1NRitwTFgcJ", "width": 1000}], "place_id": "ChIJR3xvdJNZwokR7iIK38J0Td0", "plus_code": {"compound_code": "PXJW+WF New York", "global_code": "87G7PXJW+WF"}, "price_level": 2, "rating": 4.2, "reference": "ChIJR3xvdJNZwokR7iIK38J0Td0", "types": ["meal_takeaway", "restaurant", "food", "point_of_interest", "establishment"], "user_ratings_total": 1007}, {"business_status": "OPERATIONAL", "formatted_address": "2847 Broadway, New York, NY 10025", "geometry": {"location": {"lat": 40.8045845, "lng": -73.96675549999999}, "viewport": {"northeast": {"lat": 40.80591847989272, "lng": -73.96530947010727}, "southwest": {"lat": 40.80321882010728, "lng": -73.96800912989272}}}, "icon": "https://maps.gstatic.com/mapfiles/place_api/icons/v1/png_71/restaurant-71.png", "icon_background_color": "#FF9E67", "icon_mask_base_uri": "https://maps.gstatic.com/mapfiles/place_api/icons/v2/restaurant_pinlet", "name": "Five Guys", "opening_hours": {"open_now": true}, "photos": [{"height": 562, "html_attributions": ["<a href=\"https://maps.google.com/maps/contrib/103044868989705077746\">riccardome</a>"], "photo_reference": "Aap_uECWU-KJaUSs7IcEszIPoBAlGgowMbVLrbZgw7yRoDoaZFFxTtPpQbk5Ugqsj__lQ8oGEQNn0wtlzGgZ6wC38L44oV1wxC6jDjNTiY1IHVh_alDs3jGzLSWlI8Kg7ydf5gfiOO8_OtiK2W5wuCFXWqzfreliXV8X_Oy29tXTxLt1TWzg", "width": 1000}], "place_id": "ChIJCZvtdTv2wokR3pXEDpENESU", "plus_code": {"compound_code": "R23M+R7 New York", "global_code": "87G8R23M+R7"}, "price_level": 2, "rating": 4.2, "reference": "ChIJCZvtdTv2wokR3pXEDpENESU", "types": ["meal_takeaway", "restaurant", "food", "point_of_interest", "establishment"], "user_ratings_total": 799}, {"business_status": "OPERATIONAL", "formatted_address": "80 Maiden Ln, New York, NY 10038", "geometry": {"location": {"lat": 40.7071228, "lng": -74.00777149999999}, "viewport": {"northeast": {"lat": 40.70856187989272, "lng": -74.00632912010728}, "southwest": {"lat": 40.70586222010728, "lng": -74.00902877989272}}}, "icon": "https://maps.gstatic.com/mapfiles/place_api/icons/v1/png_71/restaurant-71.png", "icon_background_color": "#FF9E67", "icon_mask_base_uri": "https://maps.gstatic.com/mapfiles/place_api/icons/v2/restaurant_pinlet", "name": "Five Guys", "opening_hours": {"open_now": true}, "photos": [{"height": 2304, "html_attributions": ["<a href=\"https://maps.google.com/maps/contrib/100616286879930207376\">Jehilyn Alfonzo</a>"], "photo_reference": "Aap_uEA8cNLr0vIwmyGuc40c-5CAk7L3KYL-R0PZLD5k4J_gf7OGTQ-KoVTE7cXkzdlG5jFHFL5g1-Qb_F9KSgmiRqqG1fDJpp4FTrwa7bv5r3uyc7Squ_LSJrVZuiRWZ3j1LY_aN8xvfy67XERcmYWLijowOf4i6U09ID80yAXMUUjzuLQX", "width": 4096}], "place_id": "ChIJOcaLGFRbwokRwz5zVLaM_VY", "plus_code": {"compound_code": "PX4R+RV New York", "global_code": "87G7PX4R+RV"}, "price_level": 2, "rating": 4.5, "reference": "ChIJOcaLGFRbwokRwz5zVLaM_VY", "types": ["meal_takeaway", "restaurant", "food", "point_of_interest", "establishment"], "user_ratings_total": 50}, {"business_status": "OPERATIONAL", "formatted_address": "815 Hutchinson River Pkwy, Bronx, NY 10465", "geometry": {"location": {"lat": 40.8234407, "lng": -73.8371279}, "viewport": {"northeast": {"lat": 40.82503282989272, "lng": -73.83623302010727}, "southwest": {"lat": 40.82233317010728, "lng": -73.83893267989271}}}, "icon": "https://maps.gstatic.com/mapfiles/place_api/icons/v1/png_71/restaurant-71.png", "icon_background_color": "#FF9E67", "icon_mask_base_uri": "https://maps.gstatic.com/mapfiles/place_api/icons/v2/restaurant_pinlet", "name": "Five Guys", "opening_hours": {"open_now": true}, "photos": [{"height": 3024, "html_attributions": ["<a href=\"https://maps.google.com/maps/contrib/113353655245292790184\">Dylan Dessasore</a>"], "photo_reference": "Aap_uEBkb0KuNEIiuUS21EYzXrv3zPIl3T_aGDWedbbYOhHg9kH5h_7b_JQYGofzedF8WAZ3yJwP9iN4rLGmq2HG-BpFffQZBDmNr_N4lRthqpwMSHiaJNtJrG-_dd1zmLNAB1vZ_3IYARGV_YXd0tTDuaPJawsxfBuMNNbrkDFKYdzkcR6W", "width": 4032}], "place_id": "ChIJVYorczKLwokRKGLb_1bbx50", "plus_code": {"compound_code": "R5F7+94 New York", "global_code": "87G8R5F7+94"}, "price_level": 2, "rating": 4, "reference": "ChIJVYorczKLwokRKGLb_1bbx50", "types": ["meal_takeaway", "restaurant", "food", "point_of_interest", "establishment"], "user_ratings_total": 390}]